name,lat,lon
Araguaína,-7.19238,-48.2044,
Araguatins,-5.64659,-48.1232,
Colinas do Tocantins,-8.05764,-48.4757,
Gurupi,-11.7279,-49.068,
Paraíso do Tocantins,-10.175,-48.8823,
Porto Nacional,-10.7027,-48.408,
Palmas,-10.24,-48.3558,