name,lat,lon
Arapiraca,-9.75487,-36.6615,
Coruripe,-10.1276,-36.1717,
Maceió,-9.66599,-35.735,
Mata Grande,-9.11824,-37.7323,
Porto Calvo,-9.05195,-35.3987,
São José da Laje,-9.01278,-36.0515,
São José da Tapera,-9.55768,-37.3831,
São Miguel dos Campos,-9.78301,-36.0971,
Viçosa,-9.36763,-36.2431,