name,lat,lon
Joensuu,62.6,29.7639,
Lieksa,63.3167,30.0167,
Outokumpu,62.725,29.0167,
Ilomantsi,62.6667,30.9333,
Juuka,63.2417,29.25,
Tohmaj‰rvi,62.2264,30.3319,
Polvij‰rvi,62.855,29.3667,
Polvij‰rvi,62.4167,28.3333,
R‰‰kkyl‰,62.3133,29.625,
Kontiolahti,62.7667,29.85,
Nurmes,63.5444,29.1333,
Liperi,62.5333,29.3833,