name,lat,lon
Vaasa,63.1,21.6167,
Jakobstad,63.6667,22.7,
Korsholm,63.1125,21.6778,
Malax,62.9417,21.55,
Laihia,62.9764,22.0111,
Vöyri,63.1333,22.25,
Isokyrö,63,22.3167,
Korsnäs,62.7833,21.1833,
Närpes,62.4736,21.3375,
Kristinestad,62.2736,21.3778,
Kaskinen,62.3847,21.2222,
Nykarleby,63.5167,22.5333,
Kronoby,63.725,23.0333,
Larsmo,63.75,22.8,
Pedersöre,63.6,22.7917,