name,lat,lon
Narbonne,43.1836,3.0042,
Cabestany,42.6806,2.9428,
Tarbes,43.23,0.07,
Muret,43.4611,1.3267,
Foix,42.9653,1.6069,
Rodez,44.3506,2.575,
Figeac,44.6086,2.0317,
Millau,44.0986,3.0783,
Mende,44.5183,3.5006,
Auch,43.6465,0.5855,
Pibrac,43.6169,1.2847,
Castelnau-le-Lez,43.6369,3.9019,
Marguerittes,43.86,4.4439,