name,lat,lon
Espoo,60.21,24.66,
Vantaa,60.3,25.0333,
Porvoo,60.3931,25.6639,
Lapinjärvi,60.6167,26.2,
Pukkila,60.645,25.5833,
Lohja,60.25,24.0667,
Karkkila,60.5347,24.2097,
Ingå,60.0458,24.0056,
Hyvinkää,60.6306,24.8597,
Nurmijärvi,60.4667,24.8083,
Kirkkonummi,60.1167,24.4167,
Raasepori,59.975,23.4361,
Hanko,59.8236,22.9681,