name,lat,lon
Hämeenlinna,61,24.4414,
Janakkala,60.9167,24.6333,
Hattula,61.05,24.3667,
Riihimäki,60.7333,24.7667,
Loppi,60.7181,24.4417,
Hausjärvi,60.7833,25.0333,
Forssa,60.8167,23.6167,
Tammela,60.8,23.7667,
Jokioinen,60.8042,23.4861,
Ypäjä,60.8083,23.2833,
Humppila,60.925,23.3667,