name,lat,lon
Lahti,60.9804,25.655,
Hollola,60.9886,25.5128,
Iitti,61.025,25.15,
Kärkölä,60.868,25.273,
Asikkala,61.1722,25.5472,
Heinola,61.2028,26.0319,
Orimattila,60.8042,25.7333,
Padasjoki,61.35,25.275,
Sysmä,61.5028,25.6847,
Hartola,61.5784,26.0142,