name,lat,lon
Mariehamn,60.0986,19.9444,
Jomala,60.15,19.95,
Lemland,60.0806,20.1,
Hammarland,60.2167,19.7403,
Eckerö,60.2167,19.55,
Brändö,60.4117,21.0453,
Brändö,60.4667,21.0833,
Geta,60.375,19.85,
Vårdö,60.2417,20.375,
Lumparland,60.1167,20.2583,
Kumlinge,60.2583,20.7783,
Sottunga,60.1333,20.6667,
Finström,60.23,19.9881,
Saltvik,60.3073,19.9862,
Sund,60.2572,20.1342,
Föglö,60,20.4333,
Kökar,59.9167,20.9,