name,lat,lon
Seinäjoki,62.7903,22.8403,
Kauhava,63.1014,23.0639,
Lapua,62.9708,23.0069,
Kauhajoki,62.4319,22.1794,
Kurikka,62.6167,22.4,
Ilmajoki,62.7333,22.5833,
Alavus,62.5861,23.6194,
Ähtäri,62.55,24.0694,
Kuortane,62.8083,23.5083,
Alajärvi,63,23.8167,
Vimpeli,63.1617,23.8167,
Lappajärvi,63.2167,23.6333,
Evijärvi,63.3667,23.475,
Soini,62.875,24.2083,
Isojoki,62.1139,21.9583,
Teuva,62.4861,21.7472,
Karijoki,62.3083,21.7083,