name,lat,lon
Montluçon,46.3408,2.6033,
Riom,45.8936,3.1125,
Yzeure,46.5658,3.3544,
Thonon-les-Bains,46.3627,6.475,
Bellegarde-sur-Valserine,46.1075,5.8258,
Chamonix-Mont-Blanc,45.9222,6.8689,
Romans-sur-Isère,45.0464,5.0517,
Eybens,45.1486,5.7503,
Privas,44.735,4.5992,
Vienne,45.5242,4.8781,
Monistrol-sur-Loire,45.2925,4.1722,
Dardilly,45.8056,4.7531,
Aurillac,44.9261,2.4406,